[
  { "city": "Mumbai", "country": "India", "lat": 19.0760, "lng": 72.8777 },
  { "city": "Delhi", "country": "India", "lat": 28.6139, "lng": 77.2090 },
  { "city": "Bengaluru", "country": "India", "lat": 12.9716, "lng": 77.5946 },
  { "city": "Goa", "country": "India", "lat": 15.2993, "lng": 74.1240 },
  { "city": "Manali", "country": "India", "lat": 32.2432, "lng": 77.1892 },
  { "city": "Udaipur", "country": "India", "lat": 24.5712, "lng": 73.6916 },
  { "city": "Dubai", "country": "UAE", "lat": 25.2048, "lng": 55.2708 },
  { "city": "Singapore", "country": "Singapore", "lat": 1.3521, "lng": 103.8198 },
  { "city": "Bangkok", "country": "Thailand", "lat": 13.7563, "lng": 100.5018 },
  { "city": "Bali", "country": "Indonesia", "lat": -8.4095, "lng": 115.1889 },
  { "city": "Tokyo", "country": "Japan", "lat": 35.6762, "lng": 139.6503 },
  { "city": "Sydney", "country": "Australia", "lat": -33.8688, "lng": 151.2093 },
  { "city": "London", "country": "UK", "lat": 51.5074, "lng": -0.1278 },
  { "city": "Paris", "country": "France", "lat": 48.8566, "lng": 2.3522 },
  { "city": "Rome", "country": "Italy", "lat": 41.9028, "lng": 12.4964 },
  { "city": "Barcelona", "country": "Spain", "lat": 41.3851, "lng": 2.1734 },
  { "city": "Toronto", "country": "Canada", "lat": 43.6532, "lng": -79.3832 },
  { "city": "New York", "country": "USA", "lat": 40.7128, "lng": -74.0060 },
  { "city": "Los Angeles", "country": "USA", "lat": 34.0522, "lng": -118.2437 },
  { "city": "San Francisco", "country": "USA", "lat": 37.7749, "lng": -122.4194 }
]
